[{"ADRESS":"Biensma 5","ZIPCODE":"9001 XZ","title":"Hofstra Yachtcharter","CITY":"Grou","SIZE":22,"LAT":53.09688655307224,"LON":5.82899374578805},{"title":"Schiphuizen De Potmarge","CITY":"Leeuwarden","SIZE":30,"LAT":53.194987519957834,"LON":5.825487532647544},{"ADRESS":"De Zwemmer  7","ZIPCODE":"8939 CA","title":"Watersportbedrijf de Vries","CITY":"Leeuwarden","SIZE":25,"LAT":53.18596787235782,"LON":5.837393618257376},{"ADRESS":"Zwolsmanweg  24","ZIPCODE":"8606 KC","title":"Schiphuizen Jansma","CITY":"Sneek","SIZE":41,"LAT":53.021675512273745,"LON":5.701343245157712},{"ADRESS":"Laaksum ","title":"Haventje van Laaksum","CITY":"Warns","SIZE":20,"LAT":52.85187873006248,"LON":5.411018750721819},{"ADRESS":"U Twynstrawei 33","ZIPCODE":"8491 CJ","title":"Tusken de Marren","CITY":"Akkrum","SIZE":460,"LAT":53.04842811533602,"LON":5.824573700904328},{"title":"Jachthaven de Swette","CITY":"Aldeboarn","SIZE":50,"LAT":53.04897160675591,"LON":5.89883352968025},{"ADRESS":"Miedemawg 1","ZIPCODE":"9064 KL","title":"Jachthaven Aldtsjerk","CITY":"Aldtsjerk","SIZE":19,"LAT":53.26464940303076,"LON":5.88468979503756},{"ADRESS":"Oostmahorn 31","ZIPCODE":"9133 DT","title":"Jachthaven Camping Oostmahorn","CITY":"Anjum","SIZE":355,"LAT":53.382791978787345,"LON":6.157941320980338},{"title":"Watersportvereniging Balk","CITY":"Balk","SIZE":30,"LAT":52.90468242974945,"LON":5.597173659568783},{"ADRESS":"Wielenlaan 19","ZIPCODE":"8526 GE","title":"Jachthaven de Woudfennen","CITY":"Boornzwaag","SIZE":100,"LAT":52.96069428087817,"LON":5.743713064789512},{"ADRESS":"Horsewei 10","ZIPCODE":"8526 DS","title":"De Tijnjehoeve","CITY":"Boornzwaag","SIZE":28,"LAT":52.99503406971432,"LON":5.717494945738028},{"ADRESS":"Efter De Wal 5","ZIPCODE":"9055 NE","title":"Watersportvereniging De Klompskippers","CITY":"Britsum","SIZE":84,"LAT":53.25657959855629,"LON":5.787238771701985},{"title":"De Houten Flier (Jouster Watersport)","CITY":"Broek Fr","SIZE":200,"LAT":52.97665415677091,"LON":5.78287787655031},{"title":"De Griene Moune (Jouster Watersport)","CITY":"Broek Fr","SIZE":350,"LAT":52.97231365464696,"LON":5.7859532267656855},{"ADRESS":"Bergumerdam 51","ZIPCODE":"9251 GB","title":"WSV Bergumermeer","CITY":"Burgum","SIZE":215,"LAT":53.186819130859774,"LON":5.993969072352932},{"ADRESS":"Eijzingapaed 8","ZIPCODE":"9215 VV","title":"De Veenhoop Watersport en recreatie","CITY":"De Veenhoop","SIZE":200,"LAT":53.09830264720061,"LON":5.946996731782836},{"ADRESS":"Biskopswei 27","ZIPCODE":"9213 VM","title":"Jachthaven De Drait","CITY":"De Wilgen","SIZE":1060,"LAT":53.101701298958,"LON":6.0461928938104865},{"title":"Watersportvereniging Dokkum","CITY":"Dokkum","SIZE":30,"LAT":53.32573063463542,"LON":6.00422240266023},{"ADRESS":"Harnzertrekwei 1","ZIPCODE":"9035 AV","title":"Jachthaven Dronrijp","CITY":"Dronryp","SIZE":20,"LAT":53.19354358809639,"LON":5.638649592009314},{"ADRESS":"Nr 1","ZIPCODE":"8528 DT","title":"De Hoek Watersport","CITY":"Dijken","SIZE":25,"LAT":52.96452625352597,"LON":5.704320639637178},{"ADRESS":"Feantersdk 1","ZIPCODE":"9264 TN","title":"Jachthaven Westerdijk","CITY":"Earnewâld","SIZE":300,"LAT":53.13371258140113,"LON":5.945685653282894},{"ADRESS":"P Miedemawg 9","ZIPCODE":"9264 TJ","title":"Passantenhaven","CITY":"Earnewâld","SIZE":180,"LAT":53.12955340664077,"LON":5.939006922951194},{"ADRESS":"Snakkerbuorren 9","ZIPCODE":"9261 VM","title":"Watersportbedrijf De Lits","CITY":"Eastermar","SIZE":230,"LAT":53.175172353144916,"LON":6.053309738489384},{"title":"Jachthaven naast RWZI","CITY":"Sumar","SIZE":30,"LAT":53.1846625018132,"LON":6.002518005935301},{"ADRESS":"De Petten 16","ZIPCODE":"8539 RM","title":"Jachthaven De Meerkoet","CITY":"Echtenerbrug","SIZE":100,"LAT":52.8751169949874,"LON":5.815598540970789},{"ADRESS":"Mardk 11","ZIPCODE":"8581 KG","title":"WSC De Fluessen","CITY":"Elahuizen","SIZE":105,"LAT":52.929546997205584,"LON":5.543181057492082},{"title":"Dorpshaven Finkum","CITY":"Finkum","SIZE":20,"LAT":53.279427087302544,"LON":5.757254162656656},{"ADRESS":"Noorderbolwerk 9","ZIPCODE":"8801 KK","title":"Franeker Watersport Vereniging","CITY":"Franeker","SIZE":150,"LAT":53.18174065395507,"LON":5.532437828318522},{"ADRESS":"Wieldk 30","ZIPCODE":"8611 JK","title":"Jachthaven Pieter Bouwe","CITY":"Gaastmeer","SIZE":103,"LAT":52.96685204397614,"LON":5.541891398377685},{"ADRESS":"Munkedk 2","ZIPCODE":"8611 JM","title":"Waterrecreatie Syperda","CITY":"Gaastmeer","SIZE":40,"LAT":52.96668103701506,"LON":5.544219009067131},{"ADRESS":"It Hof 13","ZIPCODE":"8511 AE","title":"Jachthaven Oer't String","CITY":"Goingaryp","SIZE":135,"LAT":53.01160634559714,"LON":5.772101527147123},{"ADRESS":"It Hof 3","ZIPCODE":"8511 AE","title":"Jachthaven De Klokkenstoel","CITY":"Goingaryp","SIZE":40,"LAT":53.010414132117894,"LON":5.768532235850668},{"ADRESS":"Yn E Lyte 1","ZIPCODE":"9001 ZR","title":"Recreatiepark Yn'e Lyte","CITY":"Grou","SIZE":348,"LAT":53.102266923217805,"LON":5.846184247345877},{"ADRESS":"Garde Jagerswei 14","ZIPCODE":"9001 ZP","title":"Techn. Scheepsservice B. de Jong","CITY":"Grou","SIZE":90,"LAT":53.099345210437576,"LON":5.839963191681977},{"ADRESS":"Garde Jagerswei 4","ZIPCODE":"9001 ZP","title":"Jachtwerf de Blieken","CITY":"Grou","SIZE":30,"LAT":53.09835383293135,"LON":5.837881353836239},{"ADRESS":"Meerswg ","ZIPCODE":"9001 BG","title":"Vereniging Grouwster Watersport","CITY":"Grou","SIZE":185,"LAT":53.096377752672986,"LON":5.8436663978300745},{"ADRESS":"De Reidtugel ","ZIPCODE":"9264 TS","title":"Vaste ligplaatsen v. Keimpema","CITY":"Earnewâld","SIZE":25,"LAT":53.135331680532055,"LON":5.948036115247972},{"title":"Hellingshaven","CITY":"Grou","SIZE":40,"LAT":53.0979467878044,"LON":5.842304166386918},{"ADRESS":"R V Nautawg ","ZIPCODE":"9061 AA","title":"Jachthaven Gytsjerk","CITY":"Gytsjerk","SIZE":50,"LAT":53.23518347331415,"LON":5.897568432855342},{"ADRESS":"Grachtswalplein 14","ZIPCODE":"8861 SH","title":"Harlinger Watersportvereniging","CITY":"Harlingen","SIZE":121,"LAT":53.177288617793366,"LON":5.422942191664715},{"ADRESS":"Tolvepaed 18","ZIPCODE":"8468 BJ","title":"Jachthaven Heeresloot","CITY":"Haskerdyken","SIZE":10,"LAT":52.9930383774633,"LON":5.8771987239051535},{"ADRESS":"It Eilan 2","ZIPCODE":"8621 CR","title":"Foekema Watersportbedrijf","CITY":"Heeg","SIZE":122,"LAT":52.96702072858917,"LON":5.607790276043727},{"ADRESS":"It Eilan 68","ZIPCODE":"8621 CT","title":"Jachthaven Eendracht","CITY":"Heeg","SIZE":270,"LAT":52.968105273619756,"LON":5.610366567302484},{"ADRESS":"De Draei 3","ZIPCODE":"8621 CZ","title":"Jachthaven Ottenhome","CITY":"Heeg","SIZE":187,"LAT":52.97455120369829,"LON":5.618034487197077},{"ADRESS":"De Draei 37","ZIPCODE":"8621 CZ","title":"WSB Heech by de Mar","CITY":"Heeg","SIZE":36,"LAT":52.969434580309326,"LON":5.6163556471889065},{"ADRESS":"De Draei 35","ZIPCODE":"8621 CZ","title":"Jachthaven 't Var","CITY":"Heeg","SIZE":65,"LAT":52.970295792693285,"LON":5.615973502316306},{"ADRESS":"De Draei 31","ZIPCODE":"8621 CZ","title":"Stella Nova Jachthaven","CITY":"Heeg","SIZE":100,"LAT":52.97110818106201,"LON":5.615744131403588},{"ADRESS":"It Butlan 14","ZIPCODE":"8621 DV","title":"Jachtwerf Heeg","CITY":"Heeg","SIZE":70,"LAT":52.96949545834614,"LON":5.619325922472464},{"ADRESS":"Gouden Boaijum 10","ZIPCODE":"8621 CV","title":"Hoora Watersport","CITY":"Heeg","SIZE":13,"LAT":52.96779693201397,"LON":5.6138618017899145},{"ADRESS":"Gouden Boaijum 12","ZIPCODE":"8621 CV","title":"Waypoint Heeg","CITY":"Heeg","SIZE":30,"LAT":52.96716049858306,"LON":5.613348318323426},{"ADRESS":"Gouden Boaijum 13","ZIPCODE":"8621 CV","title":"Jachthaven Gouden Bodem","CITY":"Heeg","SIZE":186,"LAT":52.96773852254711,"LON":5.617158998391753},{"ADRESS":"Wetterwille 1","ZIPCODE":"8447 GB","title":"Jachthaven de Welle","CITY":"Heerenveen","SIZE":335,"LAT":52.98082513481894,"LON":5.889178994285175},{"ADRESS":"Leeuwarderstraatweg 115","ZIPCODE":"8441 PK","title":"Jachthaven de Bron","CITY":"Heerenveen","SIZE":190,"LAT":52.97928148399225,"LON":5.8966197690628785},{"ADRESS":"Buorren 20","ZIPCODE":"8584 VC","title":"Jachthaven de Swaeikom","CITY":"Hemelum","SIZE":65,"LAT":52.883891497872305,"LON":5.452951398379049},{"ADRESS":"Oosterstrand 3","ZIPCODE":"8713 JS","title":"Jachthaven Hindeloopen","CITY":"Hindeloopen","SIZE":550,"LAT":52.9449469833852,"LON":5.405366011592727},{"ADRESS":"T Oost 12","ZIPCODE":"8713 JP","title":"Vereniging Hylper Haven","CITY":"Hindeloopen","SIZE":104,"LAT":52.94442120652268,"LON":5.402333924973662},{"ADRESS":"Krimwei 4","ZIPCODE":"8622 XZ","title":"Vakantiecentrum D'Uylenburg","CITY":"Hommerts","SIZE":70,"LAT":52.98956154775708,"LON":5.6734780675686425},{"ADRESS":"Mastersein 12","ZIPCODE":"8523 NK","title":"Recreatiepark Idskenhuizen","CITY":"Idskenhuizen","SIZE":230,"LAT":52.92961370222855,"LON":5.709187272306445},{"ADRESS":"It String 13","ZIPCODE":"9011 TA","title":"Jachthaven Aqualux Yachtcharter","CITY":"Jirnsum","SIZE":25,"LAT":53.07110637453634,"LON":5.802769749852116},{"ADRESS":"Wjitteringswei 1B","ZIPCODE":"9011 WJ","title":"Jachthaven Marina Irnsum","CITY":"Jirnsum","SIZE":70,"LAT":53.07027309346614,"LON":5.803571606268526},{"ADRESS":"Industriewei 25","ZIPCODE":"9011 WH","title":"Jachthaven De Boarnstream","CITY":"Jirnsum","SIZE":200,"LAT":53.07391205560615,"LON":5.801973071585831},{"ADRESS":"It String 9","ZIPCODE":"9011 TA","title":"Jachtwerf RFU","CITY":"Jirnsum","SIZE":131,"LAT":53.072003306848984,"LON":5.802544830283821},{"ADRESS":"Wjitteringswei 23","ZIPCODE":"9011 WJ","title":"Jachthaven Sneekerhof","CITY":"Jirnsum","SIZE":310,"LAT":53.04826204445534,"LON":5.771549160628971},{"ADRESS":"Slachtedk 22","ZIPCODE":"8501 ZA","title":"Passantenhaven Joure","CITY":"Joure","SIZE":230,"LAT":52.9720292084427,"LON":5.789002276448846},{"ADRESS":"Binnenpaed 22","ZIPCODE":"8623 XL","title":"Jachthaven Jutrijp","CITY":"Jutryp","SIZE":85,"LAT":52.99813427268381,"LON":5.646977363778397},{"ADRESS":"Kwelderwg 1","ZIPCODE":"9291 MD","title":"Jachthaven Lunegat","CITY":"Kollummerpomp","SIZE":430,"LAT":53.317614470374295,"LON":6.167185076455181},{"ADRESS":"Cantecleer 45","ZIPCODE":"9291 AP","title":"Jachthaven De Rijd","CITY":"Kollum","SIZE":160,"LAT":53.286244587303344,"LON":6.150945655022444},{"ADRESS":"Galamadammen 1","ZIPCODE":"8723 CE","title":"Jachthaven Galamadammen","CITY":"Koudum","SIZE":195,"LAT":52.90019039613037,"LON":5.461997221615397},{"ADRESS":"Ooste 43","ZIPCODE":"8723 EH","title":"Jachthaven Busman","CITY":"Koudum","SIZE":40,"LAT":52.922069188464874,"LON":5.451897365001557},{"ADRESS":"De Butlannen 2","ZIPCODE":"8551 RK","title":"Schraa Watersport","CITY":"Woudsend","SIZE":88,"LAT":52.94506259619294,"LON":5.633921518160422},{"ADRESS":"Lemsterwg 21","ZIPCODE":"8484 KK","title":"Jachthaven De Driesprong","CITY":"Langelille","SIZE":150,"LAT":52.86226023499065,"LON":5.853046602433149},{"ADRESS":"Pontdk 8","ZIPCODE":"8525 EE","title":"Koninklijke Watersportvereniging Langweer","CITY":"Langweer","SIZE":209,"LAT":52.96371519150015,"LON":5.717776441832822},{"ADRESS":"Pontdk 6","ZIPCODE":"8525 EE","title":"Recreatiepark Leyenspolder","CITY":"Langweer","SIZE":70,"LAT":52.963514752874715,"LON":5.720604979618211},{"title":"Jachthaven Scharsterbrug","CITY":"Scharsterbrug","SIZE":96,"LAT":52.944337080406555,"LON":5.78096657898219},{"ADRESS":"Pontdijk 8C","ZIPCODE":"8525 GG","title":"Jachthaven Noël","CITY":"Langweer","SIZE":90,"LAT":52.96373344927405,"LON":5.715868683066796},{"ADRESS":"Pontdijk 6","ZIPCODE":"8525 GG","title":"Watersport De Twirre","CITY":"Langweer","SIZE":65,"LAT":52.962809821872604,"LON":5.717218902668281},{"ADRESS":"Jachthavenln 3","ZIPCODE":"8937 AM","title":"Stichting De Nieuwe Leeuwarder Jachthaven","CITY":"Leeuwarden","SIZE":580,"LAT":53.19879362311521,"LON":5.828871266981981},{"ADRESS":"Avondsterweg 9","ZIPCODE":"8938 AK","title":"Jachthaven De Hemrik","CITY":"Leeuwarden","SIZE":125,"LAT":53.19159537002765,"LON":5.844321844786541},{"ADRESS":"Butlan 1","ZIPCODE":"8926 XH","title":"Recreatiepark De Grote Wielen","CITY":"Leeuwarden","SIZE":100,"LAT":53.218984099795,"LON":5.862706344432488},{"ADRESS":"Plattedk 6","ZIPCODE":"8531 PB","title":"Gemeentelijke Jachthaven Binnenzijde","CITY":"Lemmer","SIZE":430,"LAT":52.847093531931826,"LON":5.695843790233826},{"ADRESS":"Plattedk 16","ZIPCODE":"8531 PC","title":"Jachthaven Iselmar","CITY":"Lemmer","SIZE":286,"LAT":52.85093120026889,"LON":5.685736835365095},{"ADRESS":"Brekkenwg 10","ZIPCODE":"8531 PM","title":"Watersportcentrum De Brekken","CITY":"Lemmer","SIZE":200,"LAT":52.855327573455206,"LON":5.6896315418467},{"ADRESS":"Vuurtorenwg 17","ZIPCODE":"8531 HJ","title":"Gemeentelijke Jachthaven Buitenzijde","CITY":"Lemmer","SIZE":65,"LAT":52.84228666449984,"LON":5.709215901839145},{"ADRESS":"Vuurtorenwg 19","ZIPCODE":"8531 HJ","title":"Jachthaven Friese Hoek","CITY":"Lemmer","SIZE":275,"LAT":52.83829498212208,"LON":5.706859599736397},{"ADRESS":"Industriewg 17","ZIPCODE":"8531 PA","title":"Jachthaven De Punt","CITY":"Lemmer","SIZE":115,"LAT":52.83901000830927,"LON":5.704170138289316},{"ADRESS":"Industrieweg 1","ZIPCODE":"8531 PA","title":"Marine Center De Fundatie","CITY":"Lemmer","SIZE":40,"LAT":52.84329333219334,"LON":5.7025957015301225},{"ADRESS":"Vuurtorenwg 15A","ZIPCODE":"8531 HJ","title":"Yachting Sirius","CITY":"Lemmer","SIZE":180,"LAT":52.84229116781073,"LON":5.7064480485751155},{"ADRESS":"Vuurtorenwg 16","ZIPCODE":"8531 HJ","title":"Jachtwerf Maronier","CITY":"Lemmer","SIZE":44,"LAT":52.84137904814531,"LON":5.707606250712143},{"ADRESS":"Suderseewei 6","ZIPCODE":"8754 GK","title":"Marina Makkum","CITY":"Makkum Fr","SIZE":600,"LAT":53.053773732747,"LON":5.387326685749072},{"ADRESS":"Suderseewei 10","ZIPCODE":"8754 GK","title":"Watersportvereniging Makkum","CITY":"Makkum Fr","SIZE":60,"LAT":53.05480796306834,"LON":5.383301748978586},{"ADRESS":"Ymedaem 1","ZIPCODE":"8722 HP","title":"Marina Friesland","CITY":"Molkwerum","SIZE":217,"LAT":52.88933345409489,"LON":5.417372824801874},{"ADRESS":"Reewg 3","ZIPCODE":"9163 GV","title":"Jachthaven 't Leye Gat","CITY":"Nes Ameland","SIZE":148,"LAT":53.43724075353225,"LON":5.775524040125165},{"title":"Schiphuizen (nieuw, tegenover 140)","CITY":"Grou","SIZE":300,"LAT":53.10130708568668,"LON":5.838557039064149},{"ADRESS":"Leeuwarderstrwg 243","ZIPCODE":"8469 AB","title":"Jachtwerf Langenberg","CITY":"Nieuwebrug","SIZE":50,"LAT":52.99039458506784,"LON":5.882389076293595},{"ADRESS":"Leeuwarderstrwg 251","ZIPCODE":"8469 AB","title":"Jachthaven Postma","CITY":"Nieuwebrug","SIZE":40,"LAT":52.99058176992168,"LON":5.881474671322686},{"ADRESS":"Ryksstrwg 80","ZIPCODE":"9257 DV","title":"Jachthaven Zwartkruis","CITY":"Noardburgum","SIZE":300,"LAT":53.222585502616504,"LON":6.030445376077118},{"ADRESS":"Paviljoenwei 6","ZIPCODE":"8626 GD","title":"Paviljoen Sneekermeer","CITY":"Offingawier","SIZE":215,"LAT":53.03048276591917,"LON":5.73114396246609},{"ADRESS":"De Potten 2","ZIPCODE":"8626 GG","title":"RCN De Potten","CITY":"Offingawier","SIZE":240,"LAT":53.03042569374281,"LON":5.727781187756664},{"ADRESS":"Willinge Prinsstraat 8","ZIPCODE":"8421 PE","title":"Passantenhaven De Uutwiek","CITY":"Oldeberkoop","SIZE":31,"LAT":52.94368865086701,"LON":6.120148165179289},{"ADRESS":"Meerwg 34","ZIPCODE":"8515 CB","title":"Camping Tjeukemeer","CITY":"Oldeouwer","SIZE":90,"LAT":52.91175560821824,"LON":5.8094477757037},{"ADRESS":"Slotsngl 26","ZIPCODE":"9216 WH","title":"Gemeentelijke Jachthaven Oudega","CITY":"Oudega gem Small.","SIZE":96,"LAT":53.12287126823276,"LON":6.000126586438078},{"ADRESS":"Dr V Ringersstr 6","ZIPCODE":"8811 HN","title":"Recreatiehaven It Kattegat","CITY":"Ried","SIZE":33,"LAT":53.224605074379724,"LON":5.591916120306956},{"ADRESS":"Havenwei 9","ZIPCODE":"9221 SV","title":"Jachthaven Rottevalle","CITY":"Rottevalle","SIZE":64,"LAT":53.147465830598726,"LON":6.099929750891462},{"title":"Jachthaven De Oude Veerdam","CITY":"Schiermonnikoog","SIZE":135,"LAT":53.46931092272798,"LON":6.166773935438674},{"ADRESS":"Jachthaven 3","ZIPCODE":"8556 AM","title":"Jachthaven De Lemsterpoort","CITY":"Sloten Fr","SIZE":259,"LAT":52.89188438299133,"LON":5.6463887970142475},{"ADRESS":"Selfhelpweg 11","ZIPCODE":"8607 AB","title":"Jachthaven/Jachtwerf Joh. Van der Meulen","CITY":"Sneek","SIZE":50,"LAT":53.02653394659591,"LON":5.665525442323419},{"ADRESS":"Selfhelpweg 9","ZIPCODE":"8607 AB","title":"Jachthaven Aquanaut ","CITY":"Sneek","SIZE":70,"LAT":53.026625048750795,"LON":5.664146444942641},{"ADRESS":"Selfhelpweg 9","ZIPCODE":"8607 AB","title":"Schiphuizen Aquanaut","CITY":"Sneek","SIZE":71,"LAT":53.025397016325925,"LON":5.666493205407111},{"ADRESS":"Selfhelpweg ","title":"Stichting Insteekhaven De Woudvaart","CITY":"Sneek","SIZE":73,"LAT":53.02782730865054,"LON":5.6629293101942},{"ADRESS":"Oudvaart 103","ZIPCODE":"8605 BX","title":"Sneeker Jachthaven","CITY":"Sneek","SIZE":100,"LAT":53.033969055574765,"LON":5.673237121446395},{"ADRESS":"Jachthaven De Domp 4","ZIPCODE":"8605 CP","title":"Jachthaven en kampeerterrein De Domp I","CITY":"Sneek","SIZE":235,"LAT":53.03463440090882,"LON":5.677825648654425},{"ADRESS":"Gravinnewg 4","ZIPCODE":"8604 CA","title":"Jachthaven De Domp II","CITY":"Sneek","SIZE":290,"LAT":53.0336898006668,"LON":5.680043433077518},{"ADRESS":"Top 3","ZIPCODE":"8606 JT","title":"Van Wijk Maritiem Sneek","CITY":"Sneek","SIZE":32,"LAT":53.0234754062303,"LON":5.689991872217037},{"ADRESS":"Eeltjebaasweg 6-8","ZIPCODE":"8606 KA","title":"Jachthaven Brandsma","CITY":"Sneek","SIZE":80,"LAT":53.02209180853305,"LON":5.6946048679696055},{"ADRESS":"Afkelansdyk 6","ZIPCODE":"8606 JZ","title":"Jachtservice It Ges","CITY":"Sneek","SIZE":50,"LAT":53.01780444538761,"LON":5.69575707047399},{"ADRESS":"It Ges 10","ZIPCODE":"8606 JK","title":"Jachtservice Broeresloot","CITY":"Sneek","SIZE":115,"LAT":53.01738792932889,"LON":5.692147986351271},{"ADRESS":"Westend 23","ZIPCODE":"8521 NP","title":"Watersportvereniging St Nicolaasga","CITY":"St Nicolaasga","SIZE":432,"LAT":52.91319544795275,"LON":5.741992486513165},{"ADRESS":"Middelwg 15","ZIPCODE":"8715 ET","title":"Marina Stavoren","CITY":"Stavoren","SIZE":400,"LAT":52.87956233302396,"LON":5.373629029011668},{"ADRESS":"Middelwg 15","ZIPCODE":"8715 ET","title":"Marina Stavoren Buitenhaven","CITY":"Stavoren","SIZE":380,"LAT":52.874496419392095,"LON":5.364591601689367},{"ADRESS":"Noord 16","ZIPCODE":"8715 HR","title":"Gemeentelijke Binnenhaven","CITY":"Stavoren","SIZE":180,"LAT":52.88084388540659,"LON":5.363705517920112},{"ADRESS":"Koewg 44","ZIPCODE":"8715 EN","title":"Jachthaven De Roggebroek","CITY":"Stavoren","SIZE":170,"LAT":52.883609404799614,"LON":5.377934397185372},{"ADRESS":"Monnikenwg ","ZIPCODE":"9265 XL","title":"Jachthaven Suwald","CITY":"Suwald","SIZE":30,"LAT":53.17163180350058,"LON":5.934218072009132},{"ADRESS":"Jongebuorren 5","ZIPCODE":"8493 LX","title":"Strandcamping","CITY":"Terherne","SIZE":160,"LAT":53.04290274296694,"LON":5.7699847495220355},{"ADRESS":"Koailan 6","ZIPCODE":"8493 LA","title":"Jachthaven de Schiffart","CITY":"Terherne","SIZE":120,"LAT":53.0437287266295,"LON":5.7790537288397426},{"ADRESS":"Jelle Paad 12","ZIPCODE":"8493 RG","title":"Watersportcentrum Mid-Friesland","CITY":"Terherne","SIZE":140,"LAT":53.04526903929721,"LON":5.781187551466836},{"ADRESS":"Terhernsterdk 4","ZIPCODE":"8493 LP","title":"Jachthaven Oksewiel","CITY":"Terherne","SIZE":240,"LAT":53.04307119323472,"LON":5.787497817013112},{"ADRESS":"Buorren 8","ZIPCODE":"8493 LE","title":"Jachthaven Nerushoek","CITY":"Terherne","SIZE":70,"LAT":53.039857696904996,"LON":5.785678955172391},{"ADRESS":"Troelstrawg 17","ZIPCODE":"8524 DK","title":"De Koevoet","CITY":"Teroele","SIZE":80,"LAT":52.935656077627996,"LON":5.69117304305425},{"ADRESS":"Dellewal 1","ZIPCODE":"8881 EG","title":"Stichting Passantenhaven Terschelling","CITY":"Terschelling West","SIZE":500,"LAT":53.36483564722984,"LON":5.223148376131119},{"ADRESS":"Buorren 2","ZIPCODE":"9014 CE","title":"Jachtservice Niemendal","CITY":"Tersoal","SIZE":30,"LAT":53.07760583677164,"LON":5.743031966563204},{"ADRESS":"Eastwei 8","ZIPCODE":"8624 TG","title":"WSC Hart van Friesland","CITY":"Uitwellingerga","SIZE":180,"LAT":53.00515833892547,"LON":5.704683434012687},{"ADRESS":"Sjuwedk 10","ZIPCODE":"8624 TV","title":"Jachthaven De Watervriend","CITY":"Uitwellingerga","SIZE":220,"LAT":52.99763325397296,"LON":5.71566492368176},{"title":"Stichting Aanloophaven Vlieland","CITY":"Oost-Vlieland","SIZE":310,"LAT":53.296370711800485,"LON":5.090052543491735},{"ADRESS":"Tsjalk 13","ZIPCODE":"8721 EN","title":"Jachthaven de Pyramide ","CITY":"Warns","SIZE":135,"LAT":52.884754227536526,"LON":5.399316866775268},{"ADRESS":"Op É Wal 12","ZIPCODE":"8721 GJ","title":"Jachthaven De Vrijheid","CITY":"Warns","SIZE":330,"LAT":52.882322635736934,"LON":5.401229940116286},{"ADRESS":"Boppelans 11","ZIPCODE":"8721 GE","title":"Watersportcentrum De Stormvogel","CITY":"Warns","SIZE":150,"LAT":52.88463034898739,"LON":5.406563834569756},{"ADRESS":"Butenstreek 3","ZIPCODE":"9003 MC","title":"Stichting Jachthaven Wartena","CITY":"Warten","SIZE":675,"LAT":53.14974172758253,"LON":5.905623902670655},{"ADRESS":"Nw Hoek 17","ZIPCODE":"9005 NA","title":"Jachtwerf van der Werff","CITY":"Wergea","SIZE":63,"LAT":53.15435027935612,"LON":5.8435748488779335},{"ADRESS":"Brede Ikker 20","ZIPCODE":"9295 KS","title":"Jachthaven It Skipjagersgat","CITY":"Westergeest","SIZE":80,"LAT":53.29347983894235,"LON":6.081932880239772},{"ADRESS":"Schuttevaerstr 44","ZIPCODE":"8471 ZZ","title":"Jachthaven Schipsloot","CITY":"Wolvega","SIZE":52,"LAT":52.886021943857415,"LON":5.985768914230643},{"title":"Jachthaven Blessebrug","CITY":"Wolvega","SIZE":65,"LAT":52.858094013475906,"LON":6.0208717405148615},{"ADRESS":"Parallelwei 6","ZIPCODE":"8711 CH","title":"Workumer Jachthaven","CITY":"Workum","SIZE":190,"LAT":52.9774912121445,"LON":5.462791434554647},{"ADRESS":"Eniggabuorren 25","ZIPCODE":"8711 HP","title":"F.D.Heida Jachtservice","CITY":"Workum","SIZE":23,"LAT":52.976704816528674,"LON":5.460575438296432},{"ADRESS":"Moleburren 11","ZIPCODE":"8711 JA","title":"Jachthaven Bouwsma","CITY":"Workum","SIZE":125,"LAT":52.9829412678732,"LON":5.453955595641803},{"ADRESS":"Algeraburren 27","ZIPCODE":"8711 BR","title":"Jachtwerf Bouma","CITY":"Workum","SIZE":25,"LAT":52.9834479608448,"LON":5.453172755472869},{"ADRESS":"Doltewal 32","ZIPCODE":"8711 BA","title":"Kuperus Watersport","CITY":"Workum","SIZE":45,"LAT":52.98155213557729,"LON":5.449737278515234},{"title":"Ligplaatsen Hearekeunst","CITY":"Workum","SIZE":30,"LAT":52.974165122675416,"LON":5.438628405241696},{"ADRESS":"Suderseln 29","ZIPCODE":"8711 GX","title":"Jachthaven It Soal","CITY":"Workum","SIZE":539,"LAT":52.968603779862725,"LON":5.418467951232241},{"ADRESS":"Vosseln 47","ZIPCODE":"8551 ML","title":"Watersportbedrijf De Welle","CITY":"Woudsend","SIZE":65,"LAT":52.94369181578887,"LON":5.6365715420844875},{"ADRESS":"Vosseln 51","ZIPCODE":"8551 ML","title":"Watersportcentrum Parlevinker","CITY":"Woudsend","SIZE":50,"LAT":52.94385039119529,"LON":5.638770619840761},{"ADRESS":"Vosseln 67","ZIPCODE":"8551 ML","title":"Reekers Watersportbedrijf","CITY":"Woudsend","SIZE":60,"LAT":52.94324819375214,"LON":5.642894793017495},{"ADRESS":"De Zwaan 16","ZIPCODE":"8551 RK","title":"Beaufort Watersport","CITY":"Woudsend","SIZE":75,"LAT":52.94486810016068,"LON":5.639671831365416},{"ADRESS":"De Zwaan 14","ZIPCODE":"8551 RK","title":"Karibu Yachting","CITY":"Woudsend","SIZE":30,"LAT":52.94490065404644,"LON":5.6389258348441},{"ADRESS":"Sneekerpad 8","ZIPCODE":"8651 NE","title":"Skipper Club Charter","CITY":"Ylst","SIZE":30,"LAT":53.01242241198211,"LON":5.625708275912298},{"ADRESS":"Sneekerpad 6","ZIPCODE":"8651 NE","title":"Jachthaven De Uitkijk","CITY":"Ylst","SIZE":28,"LAT":53.0113068512455,"LON":5.624679241803805},{"ADRESS":"Kuikhornsterwg 31","ZIPCODE":"9271 HD","title":"Jachthaven 't Eibertsnest","CITY":"Zwaagwesteinde","SIZE":285,"LAT":53.242269841533975,"LON":6.018439001152241},{"ADRESS":"Lange Reed 1","ZIPCODE":"9271 GE","title":"WSV De Westerein","CITY":"Zwaagwesteinde","SIZE":65,"LAT":53.250300680808856,"LON":6.024891657076399},{"title":"Passantenhaven","CITY":"Winsum","SIZE":20,"LAT":53.15088879273943,"LON":5.630191368288434},{"title":"Schiphuizen Biensma","CITY":"Grou","SIZE":100,"LAT":53.095862476053576,"LON":5.830440582232912},{"ADRESS":"Polsleatwei 4","ZIPCODE":"8491 EK","title":"Jachtwerf De Wit","CITY":"Akkrum","SIZE":8,"LAT":53.04605597266462,"LON":5.835352788489214},{"ADRESS":"De Stienplaat 1","ZIPCODE":"8754 HE","title":"Prins Yacht Club","CITY":"Makkum Fr","SIZE":70,"LAT":53.05448688762996,"LON":5.393483694288316},{"ADRESS":"De Stienplaat 3","ZIPCODE":"8754 HA","title":"Hutting Yachts","CITY":"Makkum Fr","SIZE":28,"LAT":53.05369767342056,"LON":5.394108957144993},{"ADRESS":"Stranwei 17","ZIPCODE":"8754 HA","title":"Alpha Yacht Charters","CITY":"Makkum Fr","SIZE":45,"LAT":53.05175536728624,"LON":5.3971496987785},{"ADRESS":"De Stienplaat 9","ZIPCODE":"8754 HE","title":"Denekamp Yachting Sailcentre Makkum","CITY":"Makkum Fr","SIZE":61,"LAT":53.05025820895033,"LON":5.3953810055442695},{"ADRESS":"De Munniksplaat 12","ZIPCODE":"8754 HG","title":"Seabell Jachthaven","CITY":"Makkum Fr","SIZE":48,"LAT":53.04981042164514,"LON":5.397442492923575},{"ADRESS":"De Steven  26","ZIPCODE":"9206 AX","title":"Smelne Yachts","CITY":"Drachten","SIZE":116,"LAT":53.11485294021047,"LON":6.055619765682939},{"ADRESS":"Leechlân  4","ZIPCODE":"9001 ZH","title":"Jachthaven Leechlân","CITY":"Grou","SIZE":50,"LAT":53.113738110125155,"LON":5.839896108836291},{"ADRESS":"Koningsweg  13","ZIPCODE":"8861 KN","title":"Jachtwerf Kosik","CITY":"Harlingen","SIZE":25,"LAT":53.175786153297885,"LON":5.445709512839817},{"title":"Jachthaven De Kolk","CITY":"Leeuwarden","SIZE":30,"LAT":53.19365030504981,"LON":5.818901427662849},{"ADRESS":"Holstmeerweg 10","ZIPCODE":"8936 AR","title":"Jachtwerf De Potmarge","CITY":"Leeuwarden","SIZE":50,"LAT":53.194400066293205,"LON":5.832204033451209},{"ADRESS":"It Noard  117","ZIPCODE":"8512 AD","title":"Jachthaventje ten noorden van Broek","CITY":"Broek Fr","SIZE":24,"LAT":52.98871578644693,"LON":5.778076705743287},{"ADRESS":"Voorstr 65","ZIPCODE":"8861 BD","title":"Charterhavens Harlingen","CITY":"Harlingen","SIZE":70,"LAT":53.174159264469054,"LON":5.414955472940845},{"ADRESS":"Hearresyl 1","ZIPCODE":"8542 AV","title":"Recreatiebedrijf Heerenzijl","CITY":"Terkaple","SIZE":50,"LAT":53.0252003069558,"LON":5.7815570193434045},{"title":"Schiphuizen Woudfennen","CITY":"Boornzwaag","SIZE":60,"LAT":52.95956777788859,"LON":5.745316095117325},{"ADRESS":"Groningerstreek 33","ZIPCODE":"9871 PG","title":"De Landtong","CITY":"Stroobos","SIZE":30,"LAT":53.238920266161884,"LON":6.219707212223568},{"ADRESS":"Mounewei 19","ZIPCODE":"9111 HB","title":"Recreatiecomplex Mounehiem","CITY":"Burdaard","SIZE":25,"LAT":53.29636130271678,"LON":5.882165844655653},{"ADRESS":"Solcamastr 30","ZIPCODE":"9262 ND","title":"Recreatiecentrum Bergumermeer","CITY":"Sumar","SIZE":280,"LAT":53.18862956738593,"LON":6.027777257829436},{"ADRESS":"Koaidk 10","ZIPCODE":"9264 TP","title":"Jachthaven/camping It Wiid","CITY":"Earnewâld","SIZE":450,"LAT":53.12687827774607,"LON":5.9401805922025925},{"title":"Schiphuizen (naast B. de Jong)","CITY":"Grou","SIZE":300,"LAT":53.101228339795874,"LON":5.840226700847671},{"ADRESS":"Rykswg 29","ZIPCODE":"9011 VA","title":"Camping Molehiem","CITY":"Jirnsum","SIZE":75,"LAT":53.08079894542959,"LON":5.7963039430163485},{"title":"Stacaravanpark","CITY":"Akkrum","SIZE":40,"LAT":53.04881364710933,"LON":5.822507203566933},{"ADRESS":"Ljouwerterdk 60","ZIPCODE":"8492 ML","title":"AWS Eendracht","CITY":"Akkrum","SIZE":50,"LAT":53.05039397077808,"LON":5.824932505142406},{"ADRESS":"Pharshoeke 99","ZIPCODE":"8620 AA","title":"Passantenhaven Heegerwâl","CITY":"Heeg","SIZE":160,"LAT":52.965541678223794,"LON":5.603598878119686},{"ADRESS":"Lynbaen 10","ZIPCODE":"8551 NW","title":"Recreatiecentrum De Rakken","CITY":"Woudsend","SIZE":430,"LAT":52.94609415333009,"LON":5.627705608756514},{"ADRESS":"Sleatemar 1","ZIPCODE":"8561 BJ","title":"Jachthaven Lutsmond","CITY":"Balk","SIZE":260,"LAT":52.903959284559996,"LON":5.597969671644215},{"ADRESS":"Hellingpad 16","ZIPCODE":"8539 SW","title":"Jachthaven De Merenpoort","CITY":"Echtenerbrug","SIZE":135,"LAT":52.87433293614588,"LON":5.819168714322942},{"ADRESS":"Turfkd 13","ZIPCODE":"8539 SV","title":"Jachthaven/camping Oan'e Tjûkemar","CITY":"Echtenerbrug","SIZE":70,"LAT":52.874911437665354,"LON":5.819454752954723},{"ADRESS":"Skutmakkerspole 8","ZIPCODE":"8542 AJ","title":"Camping Maran","CITY":"Terkaple","SIZE":60,"LAT":53.011892668396904,"LON":5.785377463812345},{"ADRESS":"De Hannen 1","ZIPCODE":"8614 AT","title":"Tsjerne-Hannen","CITY":"Oudega gem Wymb","SIZE":110,"LAT":52.99475507532381,"LON":5.5469536401812425},{"ADRESS":"J Piebengastr 10","ZIPCODE":"8614 JJ","title":"De Bearshoeke","CITY":"Oudega gem Wymb","SIZE":150,"LAT":52.990570835354795,"LON":5.5433740013550645},{"ADRESS":"Mardk 3","ZIPCODE":"8581 KG","title":"Jachthaven/camping De Koggeplaet","CITY":"Elahuizen","SIZE":150,"LAT":52.9290003368609,"LON":5.540097767459018},{"ADRESS":"De Kuilart 1","ZIPCODE":"8723 CG","title":"De Kuilart","CITY":"Koudum","SIZE":600,"LAT":52.90428104867924,"LON":5.472147213262142},{"ADRESS":"Pontdk 2","ZIPCODE":"8525 EE","title":"Passantenhaven Langweer","CITY":"Langweer","SIZE":150,"LAT":52.961223554018616,"LON":5.721947807288424},{"ADRESS":"Kaepwei 2","ZIPCODE":"8611 JL","title":"Minicamping It String","CITY":"Gaastmeer","SIZE":23,"LAT":52.97611328907431,"LON":5.496908909929096},{"ADRESS":"Vuurtorenweg 6","ZIPCODE":"8351 HJ","title":"Jachthaven De Boei","CITY":"Lemmer","SIZE":28,"LAT":52.84319723434002,"LON":5.703710564135227},{"ADRESS":"Pasfeardyk 6","ZIPCODE":"8631 SK","title":"Camping Pasveer","CITY":"Loenga","SIZE":20,"LAT":53.048505838368996,"LON":5.680055553435905},{"ADRESS":"Klokhûsdyk 7","ZIPCODE":"8612 JJ","title":"Camping It Klokhûs","CITY":"Idzega","SIZE":15,"LAT":52.97774621904304,"LON":5.559579439490444},{"title":"Dorpshaven Reduzum","CITY":"Reduzum","SIZE":25,"LAT":53.1161191780452,"LON":5.787072165856884},{"ADRESS":"De Zwaan 4","ZIPCODE":"8551 RK","title":"Jachthaven de Zwaan","CITY":"Woudsend","SIZE":19,"LAT":52.9449323380146,"LON":5.6353036266853795},{"ADRESS":"De Zwaan 8","ZIPCODE":"8551 RK","title":"Wellekom Watersport","CITY":"Woudsend","SIZE":80,"LAT":52.944998437110975,"LON":5.636857974701147},{"ADRESS":"Bloksleat 8","ZIPCODE":"8512 AA","title":"Zeilboerderij Rufus","CITY":"Broek Fr","SIZE":20,"LAT":52.99350157560848,"LON":5.752641624764488},{"ADRESS":"Kelvinstraat 2","ZIPCODE":"8861 ND","title":"Jachthaven Zevenhuizen","CITY":"Harlingen","SIZE":35,"LAT":53.17665912955691,"LON":5.448141973950137},{"ADRESS":"Plattedk 20","ZIPCODE":"8531 PE","title":"MarinaPark Tacozijl","CITY":"Lemmer","SIZE":225,"LAT":52.85199166344005,"LON":5.6840299725788945},{"ADRESS":"Suderseln 29","ZIPCODE":"8711 GX","title":"Camping It Soal","CITY":"Workum","SIZE":50,"LAT":52.96307600694951,"LON":5.414284318710095},{"ADRESS":"Bloksleat 8","ZIPCODE":"8512 AA","title":"Zeilboerderij Rufus","CITY":"Broek Fr","SIZE":20,"LAT":52.944747087880785,"LON":5.641859886637668},{"ADRESS":"De Zwaan 22","ZIPCODE":"8551 RK","title":"Bleeker en Bleeker Jachtservice en Verhuur","CITY":"Woudsend","SIZE":24,"LAT":52.94470184872227,"LON":5.64295419150274},{"ADRESS":"Tsjalk 3","ZIPCODE":"8221 EN","title":"Nijefurd Watersport","CITY":"Warns","SIZE":22,"LAT":52.886191376255965,"LON":5.400131308780668},{"ADRESS":"It Stalt","title":"Jachthaven Augustinusga","CITY":"Augustinusga","SIZE":11,"LAT":53.220019184672886,"LON":6.161290554660863},{"ADRESS":"Skrinserdyk 10","ZIPCODE":"8835 XE","title":"Camping It Krúswetter","CITY":"Easterlittens","SIZE":10,"LAT":53.13640215262823,"LON":5.647298715628338},{"title":"Jachthaven watersportveniging","CITY":"Eastermar","SIZE":50,"LAT":53.175171663831826,"LON":6.055630891158739},{"ADRESS":"Junokade 2","ZIPCODE":"8938 AC","title":"Haven Hemrik Marine","CITY":"Leeuwarden","SIZE":64,"LAT":53.19872664263344,"LON":5.832978465427205},{"ADRESS":"De Opper 10","ZIPCODE":"8621 DV","title":"Haven Resort Heeg, fase 1","CITY":"Heeg","SIZE":52,"LAT":52.97339935652244,"LON":5.622339781850537},{"ADRESS":"Lange Reed","title":"Passantenhaven Zwaagwesteinde","CITY":"Zwaagwesteinde","SIZE":24,"LAT":53.25118288624144,"LON":6.026021330084989},{"ADRESS":"Ljouwerterdyk 59","ZIPCODE":"8491 ML","title":"Haven Zeemans","CITY":"Akkrum","SIZE":30,"LAT":53.050203913331075,"LON":5.825829382755686},{"ADRESS":"Tsjamkedykje 6","ZIPCODE":"8561 HA","title":"Recreatiepark Marswâl","CITY":"Balk","SIZE":90,"LAT":52.90627032765792,"LON":5.598320303042284},{"ADRESS":"De Muldyk 12","title":"Watersportservice Berend Mink","CITY":"Grou","SIZE":30,"LAT":53.09940274702305,"LON":5.824600054556585},{"ADRESS":"Weisleatstr 7","ZIPCODE":"8621 BA","title":"Minicamping Oan'e Poel","CITY":"Heeg","SIZE":40,"LAT":52.96937322704061,"LON":5.6005742642548295},{"ADRESS":"It Butlan 6","ZIPCODE":"8621 CR","title":"Jachtclub Hof van Heegh","CITY":"Heeg","SIZE":50,"LAT":52.97197724273032,"LON":5.617732449676502},{"ADRESS":"Suderséleane 15","ZIPCODE":"8711 GX","title":"Schiphuizen","CITY":"Workum","SIZE":10,"LAT":52.96894862312195,"LON":5.426671870880349},{"ADRESS":"Vosseleane 65","ZIPCODE":"8551 ML","title":"Schiphuizen","CITY":"Woudsend","SIZE":35,"LAT":52.943344642319765,"LON":5.641206782624728},{"ADRESS":"Sjuwedijk 16","ZIPCODE":"8624 TV","title":"Krekt Sailing","CITY":"Uitwellingerga","SIZE":15,"LAT":52.999501955718124,"LON":5.714086371404982},{"ADRESS":"Oude Oppenhuizerweg 69","ZIPCODE":"8606 JC","title":"Mikpunt Watersport","CITY":"Sneek","SIZE":13,"LAT":53.02754985000497,"LON":5.677923873124544},{"ADRESS":"Eeltjebaasweg 5","ZIPCODE":"8606 KA","title":"JFT Watersport Sneek","CITY":"Sneek","SIZE":40,"LAT":53.0209167345485,"LON":5.693745353494345},{"title":"Jachthaven Oosterzee","CITY":"Oosterzee","SIZE":70,"LAT":52.87716012336257,"LON":5.776793815803928},{"ADRESS":"Lindedijk","title":"Passantenhaven Driewegsluis","CITY":"Nijetrijne","SIZE":30,"LAT":52.83599118394891,"LON":5.934379885445691},{"ADRESS":"Lemsterpad 54","ZIPCODE":"8531 AA","title":"Watersportcentrum Boat Inn","CITY":"Lemmer","SIZE":32,"LAT":52.8360639405332,"LON":5.723936378171651},{"ADRESS":"De Wendel","title":"Dorpshaven Burum","CITY":"Burum","SIZE":30,"LAT":53.274200691483514,"LON":6.234190479073282},{"ADRESS":"De Zwemmer 1","ZIPCODE":"8939 CA","title":"Watersport De Twee Provincien","CITY":"Leeuwarden","SIZE":13,"LAT":53.1837371296239,"LON":5.836088295626507},{"ADRESS":"Singel 12","ZIPCODE":"9001 XP","title":"Triton Nautisch Centrum","CITY":"Grou","SIZE":26,"LAT":53.09979379597699,"LON":5.825910421787552},{"ADRESS":"Sibadawg 34","ZIPCODE":"8861 VG","title":"Jachtwerf Atlantic","CITY":"Harlingen","SIZE":48,"LAT":53.17481287749566,"LON":5.433934700776952},{"ADRESS":"Noorderhaven 109","ZIPCODE":"8861 AM","title":"Jachthaven Noorderhaven","CITY":"Harlingen","SIZE":206,"LAT":53.17570267628842,"LON":5.417439662578509},{"title":"Bolswarder Watersport Vereniging","CITY":"Bolsward","SIZE":22,"LAT":53.05918982607902,"LON":5.516890445217418},{"ADRESS":"Walperterwei 27","ZIPCODE":"8731 CD","title":"Jachthaven Wommels","CITY":"Wommels","SIZE":16,"LAT":53.110479186832045,"LON":5.587080021785853},{"ADRESS":"Kaepwei 5","ZIPCODE":"8611 JL","title":"Minicamping East IJnje","CITY":"Gaastmeer","SIZE":22,"LAT":52.97241575383278,"LON":5.518779653927358},{"ADRESS":"Havenkd 2","ZIPCODE":"8723 AZ","title":"Gemeentehaven Koudum","CITY":"Koudum","SIZE":45,"LAT":52.91669082120456,"LON":5.446051640222811},{"ADRESS":"De Burd 25","ZIPCODE":"8621 JX","title":"Watersportcamping Heeg","CITY":"Heeg","SIZE":90,"LAT":52.968362989737706,"LON":5.5938495976460745},{"ADRESS":"Schoterzyl 5","ZIPCODE":"8538 XP","title":"Camping/Jachthaven Het Sluisje","CITY":"Bantega","SIZE":15,"LAT":52.818161957912,"LON":5.819496700532486},{"ADRESS":"Foekjessteeg 20","ZIPCODE":"8525 EH","title":"Botenverhuur De Schakel","CITY":"Langweer","SIZE":25,"LAT":52.960140192047675,"LON":5.720621261019508},{"ADRESS":"Plusterdk 5","ZIPCODE":"8512 AH","title":"De Broek","CITY":"Broek Fr","SIZE":25,"LAT":52.984203350968045,"LON":5.776937013889786},{"ADRESS":"Mounestr 1","ZIPCODE":"9288 AR","title":"Jachthaven Kootstertille","CITY":"Kootstertille","SIZE":40,"LAT":53.21230961131228,"LON":6.100141066807682},{"title":"Vereniging Bakhuister Haven","CITY":"Bakhuizen","SIZE":30,"LAT":52.87185692301622,"LON":5.455444155746045},{"ADRESS":"Buitenstvallaat 8","ZIPCODE":"9204 WX","title":"Jachtverhuur van der Werff","CITY":"Drachten","SIZE":21,"LAT":53.104050848262304,"LON":6.042201268367958},{"title":"Jachthaven Hallum","CITY":"Hallum","SIZE":35,"LAT":53.30498080201852,"LON":5.78086820281575},{"ADRESS":"Koningswg 4","ZIPCODE":"8861 KN","title":"Jachtservice Bijko","CITY":"Harlingen","SIZE":40,"LAT":53.17443418318611,"LON":5.444976308597602},{"ADRESS":"Kanaalwg 120","ZIPCODE":"8861 KJ","title":"Jachtwerf Ouwehand","CITY":"Harlingen","SIZE":39,"LAT":53.173845632901866,"LON":5.454591955198433},{"title":"Recreatie/haventerrein Het Molenrak","CITY":"Holwerd","SIZE":20,"LAT":53.36607007180775,"LON":5.899671363375656},{"ADRESS":"Sluiswg 3A","ZIPCODE":"8531 DJ","title":"Jachthaven Blauwe Boei & Valent","CITY":"Lemmer","SIZE":35,"LAT":52.8424844539232,"LON":5.715437967766872},{"ADRESS":"Voorstr 9","ZIPCODE":"8754 EV","title":"Gemeentelijke Vissershaven","CITY":"Makkum Fr","SIZE":110,"LAT":53.05298973196638,"LON":5.402779339045},{"title":"t Seleantsje","CITY":"Molkwerum","SIZE":40,"LAT":52.90473548361009,"LON":5.396112154642272},{"ADRESS":"Methardusstr 33","ZIPCODE":"9853 PD","title":"Jachthaven Munnekezijl","CITY":"Munnekezyl","SIZE":18,"LAT":53.30114173752128,"LON":6.273298359320999},{"title":"Schiphuizen (achter Heineken)","CITY":"Grou","SIZE":40,"LAT":53.09417108965227,"LON":5.823458681971557},{"ADRESS":"J W De Visserwei 10","ZIPCODE":"9001 ZE","title":"Gemeentelijke Kades en Passantenhaven","CITY":"Grou","SIZE":135,"LAT":53.09464099561491,"LON":5.844745541401736},{"ZIPCODE":"8474 EB","title":"Watersportvereniging Kontermans","CITY":"Oldeholtpade","SIZE":60,"LAT":52.88664352803404,"LON":6.068123502508095},{"title":"Haven Oosterzee","CITY":"Oosterzee","SIZE":15,"LAT":52.87635035223478,"LON":5.775394933979672},{"title":"Dorpshaven Oude Leye","CITY":"Oude Leye","SIZE":22,"LAT":53.28857005269933,"LON":5.731306190244736},{"ADRESS":"Nr 9","ZIPCODE":"8613 JH","title":"S.Reitsma","CITY":"Sandfirden","SIZE":12,"LAT":52.98757001890316,"LON":5.509476014625981},{"ADRESS":"Nr 11","ZIPCODE":"8613 JH","title":"Kampeerboerderij Ykema","CITY":"Sandfirden","SIZE":20,"LAT":52.98647811691688,"LON":5.50885943047672},{"ADRESS":"L Jerden 1","ZIPCODE":"8556 XC","title":"Recreatiecentrum De Jerden","CITY":"Sloten Fr","SIZE":60,"LAT":52.90007930348647,"LON":5.642603992399776},{"title":"Stichting Ligplaatsen Westersingel","CITY":"Sneek","SIZE":65,"LAT":53.03047040071605,"LON":5.657545767167985},{"ADRESS":"Noord 16","ZIPCODE":"8715 HR","title":"Oude haven","CITY":"Stavoren","SIZE":150,"LAT":52.886190701419665,"LON":5.356313694581086},{"ADRESS":"Buorren 2","ZIPCODE":"8493 LE","title":"Camping Oan 'e Poel","CITY":"Terherne","SIZE":60,"LAT":53.038537499304574,"LON":5.785269744540656},{"ADRESS":"Kupersln 34","ZIPCODE":"8493 LR","title":"Sjerp de Vries","CITY":"Terherne","SIZE":25,"LAT":53.040543616937676,"LON":5.785602943591121},{"ADRESS":"Postbus 79","ZIPCODE":"8880 AB","title":"Haven Bruinevloot","CITY":"Terschelling West","SIZE":40,"LAT":53.36008733310251,"LON":5.217738893469386},{"ADRESS":"Tergracht 1","ZIPCODE":"9178 GG","title":"Jachthaven Tergracht","CITY":"Wânswert","SIZE":15,"LAT":53.28597626259904,"LON":5.847481001933353},{"ADRESS":"Rounwei 11","ZIPCODE":"9003 MA","title":"Jachthaven T. de Jong","CITY":"Warten","SIZE":98,"LAT":53.149766181344575,"LON":5.900342761435631},{"ADRESS":"Midsbuorren 26","ZIPCODE":"9003 LB","title":"Jachthaven Feenstra","CITY":"Warten","SIZE":22,"LAT":53.150335275775035,"LON":5.882781590264916},{"ADRESS":"P.J. Kleystraat 4","ZIPCODE":"9005 PH","title":"Wargaster Watersport Vereniging","CITY":"Wergea","SIZE":45,"LAT":53.14622982886358,"LON":5.845924111718669},{"title":"Hulzinga Watersport","CITY":"Wolvega","SIZE":12,"LAT":52.88313073305673,"LON":5.991027525793131},{"title":"Jachthaven De Linde","CITY":"Wolvega","SIZE":25,"LAT":52.854703952558374,"LON":6.019628690615929},{"ADRESS":"Suderseeleane 15","ZIPCODE":"8711 GX","title":"Watersporttechniek Henk-Jan","CITY":"Workum","SIZE":42,"LAT":52.9686321294726,"LON":5.425681816471153},{"ADRESS":"Kaeidk 14","ZIPCODE":"8711 HD","title":"Jachtwerf Faber","CITY":"Workum","SIZE":18,"LAT":52.970031486597954,"LON":5.429227098084724},{"title":"De Raskes","CITY":"Ezumazijl","SIZE":45,"LAT":53.35860945144557,"LON":6.149841368262758},{"title":"Jachthaventje bij de Tuinen","CITY":"Franeker","SIZE":20,"LAT":53.18274087114932,"LON":5.5375223464341685},{"ADRESS":"Industriewg 1","ZIPCODE":"8861 VH","title":"vm Harlinger Jachtbouw","CITY":"Harlingen","SIZE":25,"LAT":53.17475541504659,"LON":5.435425400638143},{"ADRESS":"Buorren 31","ZIPCODE":"8584 VC","title":"Watersportcentrum Morra","CITY":"Hemelum","SIZE":10,"LAT":52.8827010107555,"LON":5.453513332017056},{"title":"Passantenhaven Gaastmeer","CITY":"Gaastmeer","SIZE":20,"LAT":52.96279840871604,"LON":5.543825068986513},{"ADRESS":"Einsteinstr 9","ZIPCODE":"8606 JR","title":"Vacance Jachtbouw","CITY":"Sneek","SIZE":15,"LAT":53.02231758445109,"LON":5.685370051443075},{"ADRESS":"Meenscharwg 35","ZIPCODE":"8467 SC","title":"Passantenhaven","CITY":"Vegelinsoord","SIZE":15,"LAT":53.00103928697753,"LON":5.864378798487458},{"ADRESS":"Jongebuorren 1","ZIPCODE":"8493 LX","title":"Camping van der Meer","CITY":"Terherne","SIZE":50,"LAT":53.03572038888236,"LON":5.77271725540985},{"title":"Jachthaventje achter de Buorren","CITY":"Terherne","SIZE":25,"LAT":53.041183192837934,"LON":5.7817061469750906},{"ADRESS":"Buorren 1","ZIPCODE":"9014 CE","title":"Jachthaven Minicamping Tersoal","CITY":"Tersoal","SIZE":16,"LAT":53.07528478356468,"LON":5.745495307785488},{"title":"Jachthaven bij Hooidambrug","CITY":"Oudega gem Small.","SIZE":30,"LAT":53.10423403341227,"LON":5.948973662406287},{"ADRESS":"Harnzertrekwe1 1","ZIPCODE":"9035 AV","title":"Zandbergen Watersport B.V.","CITY":"Dronrijp","SIZE":42,"LAT":53.19536305989573,"LON":5.627020928241064},{"ADRESS":"Stranwei 15","ZIPCODE":"8754 HA","title":"Aquatel BV","CITY":"Makkum Fr","SIZE":34,"LAT":53.05070350497244,"LON":5.397149169753961},{"ADRESS":"Stranwei 30","ZIPCODE":"8754 HA","title":"Bloemsma en van Breemen","CITY":"Makkum Fr","SIZE":37,"LAT":53.05396185579139,"LON":5.397749711721216}]